[
    {
        "id": "1",
        "name": "Amerijet International Inc. - STT",
        "lat": "18.33749",
        "lng": "-64.96944",
        "address": "# 4 Cargo Centre, Cyril E King Airport",
        "address2": "",
        "city": "St Thomas",
        "state": "VI",
        "postal": "00801",
        "phone": "+1-340-774-5872",
        "Home Page": ""
    },
    {
        "id": "2",
        "name": "Amerijet International Inc. - STX",
        "lat": "17.70388",
        "lng": "-64.79888",
        "address": "Henry E. Rohlsen International Airport",
        "address2": "",
        "city": "St. Croix",
        "state": "VI",
        "postal": "00851",
        "phone": "+1-340-774-5872",
        "Home Page": ""
    },
    {
        "id": "3",
        "name": "Amerijet International Inc. - PBI",
        "lat": "26.68222",
        "lng": "-80.09416",
        "address": "1300 North Florida Mango Road, Suite 34",
        "address2": "",
        "city": "West Palm Beach",
        "state": "FL",
        "postal": "33409",
        "phone": "+1-561-687-7663",
        "Home Page": ""
    },
    {
        "id": "4",
        "name": "Amerijet International Inc. - RNO",
        "lat": "39.49777",
        "lng": "-119.76749",
        "address": "1395 Air Cargo Way, Unit 134",
        "address2": "",
        "city": "Reno",
        "state": "NV",
        "postal": "89502",
        "phone": "+1-775-323-1690",
        "Home Page": ""
    },
    {
        "id": "5",
        "name": "Amerijet International Inc. - ATL",
        "lat": "33.6133",
        "lng": "-84.3728",
        "address": "114 Southfield Parkway Suite #100",
        "address2": "Commercial & Retail Hub Station",
        "city": "Atlanta (Forest Park)",
        "state": "GA",
        "postal": "30297",
        "phone": "+1-404-761-3350",
        "Home Page": ""
    },
    {
        "id": "6",
        "name": "Amerijet International Inc. - TPA",
        "lat": "27.996",
        "lng": "-82.43374",
        "address": "2525 E. Hillsborough Ave. Unit 201",
        "address2": "",
        "city": "Tampa",
        "state": "FL",
        "postal": "33610",
        "phone": "+1-813-527-0742",
        "Home Page": ""
    },
    {
        "id": "7",
        "name": "Amerijet International Inc. - BWI",
        "lat": "39.16452",
        "lng": "-76.63466",
        "address": "6525 Washington Boulevard",
        "address2": "",
        "city": "Elkridge",
        "state": "MD",
        "postal": "21075",
        "phone": "+1-703-879-8112",
        "Home Page": ""
    },
    {
        "id": "8",
        "name": "Amerijet International Inc. - FLL",
        "lat": "26.08858",
        "lng": "-80.13901",
        "address": "2800 S. Andrews Avenue",
        "address2": "",
        "city": "Fort Lauderdale",
        "state": "FL",
        "postal": "33316",
        "phone": "+1-954-320-5330",
        "Home Page": ""
    },
    {
        "id": "9",
        "name": "Amerijet International Inc. - IAH",
        "lat": "29.94078",
        "lng": "-95.34585",
        "address": "19345 Kenswick Drive, Suite 100",
        "address2": "",
        "city": "Humble",
        "state": "TX",
        "postal": "77338",
        "phone": "+1-281-670-1100",
        "Home Page": ""
    },
    {
        "id": "10",
        "name": "Amerijet International Inc. - JFK",
        "lat": "40.67704",
        "lng": "-73.7782",
        "address": "177-09 150th Avenue",
        "address2": "",
        "city": "Jamaica",
        "state": "NY",
        "postal": "11434",
        "phone": "+1-718-656-8356",
        "Home Page": ""
    },
    {
        "id": "11",
        "name": "Amerijet International Inc. - LAX",
        "lat": "34.02756",
        "lng": "-118.24102",
        "address": "963 East 12th Street",
        "address2": "",
        "city": "Los Angeles",
        "state": "CA",
        "postal": "90021",
        "phone": "+1-213-629-9033",
        "Home Page": ""
    },
    {
        "id": "12",
        "name": "Amerijet International Inc. - MIA",
        "lat": "25.799",
        "lng": "-80.30068",
        "address": "3401-A N.W. 72nd Ave.",
        "address2": "",
        "city": "Miami",
        "state": "FL",
        "postal": "33122",
        "phone": "+1-305-593-5500",
        "Home Page": ""
    },
    {
        "id": "13",
        "name": "Amerijet International Inc. - NYB",
        "lat": "40.64967",
        "lng": "-73.93766",
        "address": "1357 Utica Avenue",
        "address2": "",
        "city": "Brooklyn",
        "state": "NY",
        "postal": "11203",
        "phone": "+1-718-629-0484",
        "Home Page": ""
    },
    {
        "id": "14",
        "name": "Amerijet International Inc. - ORD",
        "lat": "42.00883",
        "lng": "-88.00138",
        "address": "674 South County Line Road",
        "address2": "",
        "city": "Bensenville",
        "state": "IL",
        "postal": "60106",
        "phone": "630-477-1043",
        "Home Page": ""
    },
    {
        "id": "15",
        "name": "Amerijet International Inc. - SJU",
        "lat": "18.44138",
        "lng": "-66.00222",
        "address": "AA Cargo Terminal Left Wing",
        "address2": "Cargo Base Muniz",
        "city": "San Juan",
        "state": "PR",
        "postal": "00979",
        "phone": "+1-787-791-4570/791-5521",
        "Home Page": ""
    },
    {
        "id": "16",
        "name": "Amerijet International Inc. - BOS",
        "lat": "42.38307",
        "lng": "-71.01804",
        "address": "440 Williams McClellan Hwy.\rSuite 102-A",
        "address2": "",
        "city": "East Boston",
        "state": "MA",
        "postal": "02128",
        "phone": "+1-617-716-1023",
        "Home Page": ""
    },
    {
        "id": "17",
        "name": "Amerijet International Inc. - DFW",
        "lat": "32.9169",
        "lng": "-96.97227",
        "address": "749 Port America Place  Suite 300",
        "address2": "C/O Accelerated, Inc.",
        "city": "Grapevine",
        "state": "TX",
        "postal": "76051",
        "phone": "+281- 670-1100",
        "Home Page": ""
    },
    {
        "id": "18",
        "name": "Amerijet International Inc. - CVG",
        "lat": "39.00902",
        "lng": "-84.59807",
        "address": "1825 Airport Exchange Blvd, Ste 200",
        "address2": "C/O Accelerated Inc.",
        "city": "Hebron",
        "state": "KY",
        "postal": "41048",
        "phone": "+1-630-477-1043",
        "Home Page": ""
    },
    {
        "id": "19",
        "name": "Amerijet International Inc. - DTW",
        "lat": "42.23432",
        "lng": "-83.26931",
        "address": "13495 Inkster Road",
        "address2": "",
        "city": "Taylor",
        "state": "MI",
        "postal": "48180",
        "phone": "+1-630-477-1043",
        "Home Page": ""
    },
    {
        "id": "20",
        "name": "Amerijet International Inc. - EWR",
        "lat": "40.71345",
        "lng": "-74.17417",
        "address": "275 South Street",
        "address2": "",
        "city": "Newark",
        "state": "NJ",
        "postal": "07114",
        "phone": "+1-862-772-7992",
        "Home Page": ""
    },
    {
        "id": "21",
        "name": "Amerijet International Inc. - IAD",
        "lat": "38.99568",
        "lng": "-77.43502",
        "address": "45065 Old Ox Road, Suite 100",
        "address2": "",
        "city": "Sterling",
        "state": "VA",
        "postal": "20166",
        "phone": "+1-703-879-8112",
        "Home Page": ""
    },
    {
        "id": "22",
        "name": "Amerijet International Inc. - MCO",
        "lat": "28.57378",
        "lng": "-81.39719",
        "address": "2516 West Colonial Drive",
        "address2": "",
        "city": "Orlando",
        "state": "FL",
        "postal": "32804",
        "phone": "+1-407-425-9652",
        "Home Page": ""
    },
    {
        "id": "23",
        "name": "Amerijet International Inc. - MSY",
        "lat": "29.98861",
        "lng": "-90.25044",
        "address": "4240 Williams Blvd., Suite #3",
        "address2": "",
        "city": "Kenner",
        "state": "LA",
        "postal": "70065",
        "phone": "+1-504-602-9591",
        "Home Page": ""
    },
    {
        "id": "24",
        "name": "Amerijet International Inc. - LGA",
        "lat": "40.83599",
        "lng": "-73.92261",
        "address": "1225 Jerome Avenue",
        "address2": "",
        "city": "Bronx",
        "state": "NY",
        "postal": "10452",
        "phone": "+347-905-5168 or +917-340-0769",
        "Home Page": ""
    },
    {
        "id": "25",
        "name": "Amerijet International Inc. - PHX",
        "lat": "33.43944",
        "lng": "-112.19101",
        "address": "1711 S. 47TH AVENUE SUITE 100",
        "address2": "",
        "city": "Phoenix",
        "state": "AZ",
        "postal": "85043",
        "phone": "+1-213-629-9033",
        "Home Page": ""
    },
    {
        "id": "26",
        "name": "Amerijet International Inc. - SFO",
        "lat": "37.68773",
        "lng": "-122.40401",
        "address": "427 Valley Drive",
        "address2": "",
        "city": "Brisbane",
        "state": "CA",
        "postal": "94005",
        "phone": "+1-213-629-9033",
        "Home Page": ""
    },
    {
        "id": "27",
        "name": "Amerijet International Inc. - SEA",
        "lat": "47.39273",
        "lng": "-122.26006",
        "address": "6531 South 219 Street",
        "address2": "",
        "city": "Kent",
        "state": "WA",
        "postal": "98032",
        "phone": "+1-213-629-9033",
        "Home Page": ""
    },
    {
        "id": ""
    }
]